[
  {
    "name": "Ataşehir MMM Migros",
    "lat": 40.9923307,
    "lng": 29.1244229
  },
  {
    "name": "Novada MMM Migros",
    "lat": 40.986106,
    "lng": 29.1161293
  },
  {
    "name": "Beylikdüzü 5M Migros",
    "lat": 41.0066851,
    "lng": 28.6552262
  },
  {
    "name": "Ortaköy MMM Migros",
    "lat": 41.055783,
    "lng": 29.0210292
  },
  {
    "name": "Caddebostan MMM Migros",
    "lat": 40.9632463,
    "lng": 29.0630908
  }
]